{"businesses": [{"id": "X0DNGKUQPjf0AfaXfXU2Qg", "alias": "kick-axe-throwing-brooklyn-2", "name": "Kick Axe Throwing", "image_url": "https://s3-media1.fl.yelpcdn.com/bphoto/WjKylwrUBKnGIE_ldj142Q/o.jpg", "is_closed": false, "url": "https://www.yelp.com/biz/kick-axe-throwing-brooklyn-2?adjust_creative=5FV6d79g5IFRDRnAWjah_g&utm_campaign=yelp_api_v3&utm_medium=api_v3_business_search&utm_source=5FV6d79g5IFRDRnAWjah_g", "review_count": 399, "categories": [{"alias": "bars", "title": "Bars"}, {"alias": "axethrowing", "title": "Axe Throwing"}, {"alias": "tradamerican", "title": "American (Traditional)"}], "rating": 4.5, "coordinates": {"latitude": 40.6790268, "longitude": -73.983077}, "transactions": [], "location": {"address1": "622 Degraw St", "address2": null, "address3": "", "city": "Brooklyn", "zip_code": "11217", "country": "US", "state": "NY", "display_address": ["622 Degraw St", "Brooklyn, NY 11217"]}, "phone": "+18335425293", "display_phone": "(833) 542-5293", "distance": 4733.616620254917}, {"id": "4E6BkrEVf_0TjRVYE7gxeQ", "alias": "bury-the-hatchet-brooklyn-axe-throwing-brooklyn-2", "name": "Bury the Hatchet Brooklyn - Axe Throwing", "image_url": "https://s3-media3.fl.yelpcdn.com/bphoto/SH8_Nwmd13LkntwuzcEPeg/o.jpg", "is_closed": false, "url": "https://www.yelp.com/biz/bury-the-hatchet-brooklyn-axe-throwing-brooklyn-2?adjust_creative=5FV6d79g5IFRDRnAWjah_g&utm_campaign=yelp_api_v3&utm_medium=api_v3_business_search&utm_source=5FV6d79g5IFRDRnAWjah_g", "review_count": 143, "categories": [{"alias": "axethrowing", "title": "Axe Throwing"}, {"alias": "teambuilding", "title": "Team Building Activities"}], "rating": 4.5, "coordinates": {"latitude": 40.7283195, "longitude": -73.9600679}, "transactions": [], "location": {"address1": "25 Noble St", "address2": null, "address3": "", "city": "Brooklyn", "zip_code": "11222", "country": "US", "state": "NY", "display_address": ["25 Noble St", "Brooklyn, NY 11222"]}, "phone": "+19172439696", "display_phone": "(917) 243-9696", "distance": 8652.979400045351}, {"id": "PhEkSzYZHKYS7uyXePmkMw", "alias": "axes-and-arrows-long-island-city-2", "name": "Axes And Arrows", "image_url": "https://s3-media4.fl.yelpcdn.com/bphoto/Uinh_osn8ykDeLoigmgo0Q/o.jpg", "is_closed": false, "url": "https://www.yelp.com/biz/axes-and-arrows-long-island-city-2?adjust_creative=5FV6d79g5IFRDRnAWjah_g&utm_campaign=yelp_api_v3&utm_medium=api_v3_business_search&utm_source=5FV6d79g5IFRDRnAWjah_g", "review_count": 49, "categories": [{"alias": "axethrowing", "title": "Axe Throwing"}, {"alias": "archery", "title": "Archery"}], "rating": 4.5, "coordinates": {"latitude": 40.7425127, "longitude": -73.933816}, "transactions": [], "location": {"address1": "47- 11 Van Dam St", "address2": null, "address3": "", "city": "Long Island City", "zip_code": "11101", "country": "US", "state": "NY", "display_address": ["47- 11 Van Dam St", "Long Island City, NY 11101"]}, "phone": "+17183619152", "display_phone": "(718) 361-9152", "distance": 9996.588059135383}, {"id": "lZVE27r_W_3GXxNwECYC4g", "alias": "live-axe-new-york", "name": "Live Axe", "image_url": "https://s3-media2.fl.yelpcdn.com/bphoto/-Z1qvni_2N-K85FHmaesaQ/o.jpg", "is_closed": false, "url": "https://www.yelp.com/biz/live-axe-new-york?adjust_creative=5FV6d79g5IFRDRnAWjah_g&utm_campaign=yelp_api_v3&utm_medium=api_v3_business_search&utm_source=5FV6d79g5IFRDRnAWjah_g", "review_count": 2, "categories": [{"alias": "axethrowing", "title": "Axe Throwing"}, {"alias": "bars", "title": "Bars"}], "rating": 5.0, "coordinates": {"latitude": 40.71769, "longitude": -74.00144}, "transactions": [], "location": {"address1": "96 Lafayette St", "address2": null, "address3": null, "city": "New York", "zip_code": "10013", "country": "US", "state": "NY", "display_address": ["96 Lafayette St", "New York, NY 10013"]}, "phone": "+18888129060", "display_phone": "(888) 812-9060", "distance": 8955.976101576549}, {"id": "b9DAbR-1eIfLr6TPI_r59Q", "alias": "axe-kicking-entertainment-mineola", "name": "Axe Kicking Entertainment", "image_url": "https://s3-media3.fl.yelpcdn.com/bphoto/stIBBatr6P1t9IKtZpL2Lg/o.jpg", "is_closed": false, "url": "https://www.yelp.com/biz/axe-kicking-entertainment-mineola?adjust_creative=5FV6d79g5IFRDRnAWjah_g&utm_campaign=yelp_api_v3&utm_medium=api_v3_business_search&utm_source=5FV6d79g5IFRDRnAWjah_g", "review_count": 2, "categories": [{"alias": "axethrowing", "title": "Axe Throwing"}, {"alias": "archery", "title": "Archery"}, {"alias": "bowling", "title": "Bowling"}], "rating": 5.0, "coordinates": {"latitude": 40.74638, "longitude": -73.65027}, "transactions": [], "location": {"address1": "360 Jericho Turnpike", "address2": null, "address3": "", "city": "Mineola", "zip_code": "11501", "country": "US", "state": "NY", "display_address": ["360 Jericho Turnpike", "Mineola, NY 11501"]}, "phone": "+15162806040", "display_phone": "(516) 280-6040", "distance": 26518.825160012875}, {"id": "K_Jm8V-XuOFlbHb_VUzk-w", "alias": "indoor-extreme-sports-long-island-city", "name": "Indoor Extreme Sports", "image_url": "https://s3-media2.fl.yelpcdn.com/bphoto/wQE-gOKf-shCB4sDI2WmhQ/o.jpg", "is_closed": false, "url": "https://www.yelp.com/biz/indoor-extreme-sports-long-island-city?adjust_creative=5FV6d79g5IFRDRnAWjah_g&utm_campaign=yelp_api_v3&utm_medium=api_v3_business_search&utm_source=5FV6d79g5IFRDRnAWjah_g", "review_count": 508, "categories": [{"alias": "paintball", "title": "Paintball"}, {"alias": "lasertag", "title": "Laser Tag"}, {"alias": "axethrowing", "title": "Axe Throwing"}], "rating": 4.0, "coordinates": {"latitude": 40.7422746, "longitude": -73.9338804}, "transactions": [], "location": {"address1": "47 11 Van Dam St", "address2": null, "address3": "", "city": "Long Island City", "zip_code": "11101", "country": "US", "state": "NY", "display_address": ["47 11 Van Dam St", "Long Island City, NY 11101"]}, "phone": "+17183619152", "display_phone": "(718) 361-9152", "distance": 10012.024588128}, {"id": "yXOjBSwyqOKDY7oHx3z7HA", "alias": "tomahawks-jersey-city", "name": "Tomahawks", "image_url": "https://s3-media1.fl.yelpcdn.com/bphoto/AcR-ExIWOWPNXRr6G5cGQw/o.jpg", "is_closed": false, "url": "https://www.yelp.com/biz/tomahawks-jersey-city?adjust_creative=5FV6d79g5IFRDRnAWjah_g&utm_campaign=yelp_api_v3&utm_medium=api_v3_business_search&utm_source=5FV6d79g5IFRDRnAWjah_g", "review_count": 13, "categories": [{"alias": "axethrowing", "title": "Axe Throwing"}], "rating": 4.5, "coordinates": {"latitude": 40.7411216, "longitude": -74.0493572}, "transactions": [], "location": {"address1": "7 Sherman Ave", "address2": "Fl 2", "address3": "", "city": "Jersey City", "zip_code": "07307", "country": "US", "state": "NJ", "display_address": ["7 Sherman Ave", "Fl 2", "Jersey City, NJ 07307"]}, "phone": "+12014209722", "display_phone": "(201) 420-9722", "distance": 13556.0314007906}, {"id": "wuy6jyi5cxm1pwnUTWyBLw", "alias": "stumpys-hatchet-house-fairfield-fairfield-3", "name": "Stumpy's Hatchet House Fairfield - Axe Throwing", "image_url": "https://s3-media1.fl.yelpcdn.com/bphoto/yKG858jIoenW0jLpq6Hg1A/o.jpg", "is_closed": false, "url": "https://www.yelp.com/biz/stumpys-hatchet-house-fairfield-fairfield-3?adjust_creative=5FV6d79g5IFRDRnAWjah_g&utm_campaign=yelp_api_v3&utm_medium=api_v3_business_search&utm_source=5FV6d79g5IFRDRnAWjah_g", "review_count": 44, "categories": [{"alias": "axethrowing", "title": "Axe Throwing"}, {"alias": "recreation", "title": "Recreation Centers"}], "rating": 5.0, "coordinates": {"latitude": 40.8824525201793, "longitude": -74.2942046508915}, "transactions": [], "location": {"address1": "373 Us-46 W", "address2": "Ste D140", "address3": "", "city": "Fairfield", "zip_code": "07004", "country": "US", "state": "NJ", "display_address": ["373 Us-46 W", "Ste D140", "Fairfield, NJ 07004"]}, "phone": "+19737213120", "display_phone": "(973) 721-3120", "distance": 39341.674681213146}, {"id": "1BUoVTCYSpGfG0oobAr5Hg", "alias": "bury-the-hatchet-axe-throwing-bloomfield-bloomfield", "name": "Bury The Hatchet Axe Throwing- Bloomfield", "image_url": "https://s3-media2.fl.yelpcdn.com/bphoto/Y6OdaWjNZKFNKuSdl-rU3w/o.jpg", "is_closed": false, "url": "https://www.yelp.com/biz/bury-the-hatchet-axe-throwing-bloomfield-bloomfield?adjust_creative=5FV6d79g5IFRDRnAWjah_g&utm_campaign=yelp_api_v3&utm_medium=api_v3_business_search&utm_source=5FV6d79g5IFRDRnAWjah_g", "review_count": 90, "categories": [{"alias": "axethrowing", "title": "Axe Throwing"}], "rating": 4.5, "coordinates": {"latitude": 40.79607, "longitude": -74.2003299}, "transactions": [], "location": {"address1": "672 Bloomfield Ave", "address2": null, "address3": "", "city": "Bloomfield", "zip_code": "07003", "country": "US", "state": "NJ", "display_address": ["672 Bloomfield Ave", "Bloomfield, NJ 07003"]}, "phone": "+19738427725", "display_phone": "(973) 842-7725", "distance": 27173.957270887662}, {"id": "oKkn9nKh6jB-fsQIDbP4tQ", "alias": "bury-the-hatchet-matawan", "name": "Bury The Hatchet", "image_url": "https://s3-media1.fl.yelpcdn.com/bphoto/EsKEUTyvjjzdr6SzTzubSQ/o.jpg", "is_closed": false, "url": "https://www.yelp.com/biz/bury-the-hatchet-matawan?adjust_creative=5FV6d79g5IFRDRnAWjah_g&utm_campaign=yelp_api_v3&utm_medium=api_v3_business_search&utm_source=5FV6d79g5IFRDRnAWjah_g", "review_count": 88, "categories": [{"alias": "axethrowing", "title": "Axe Throwing"}, {"alias": "teambuilding", "title": "Team Building Activities"}], "rating": 5.0, "coordinates": {"latitude": 40.4234040521118, "longitude": -74.2643531039357}, "transactions": [], "location": {"address1": "419 Route 34", "address2": "", "address3": null, "city": "Matawan", "zip_code": "07747", "country": "US", "state": "NJ", "display_address": ["419 Route 34", "Matawan, NJ 07747"]}, "phone": "+17329626284", "display_phone": "(732) 962-6284", "distance": 37446.224760844736}, {"id": "xC9gtq17G9XU5d-yjkprfA", "alias": "bury-the-hatchet-paramus-axe-throwing-paramus-2", "name": "Bury the Hatchet Paramus - Axe Throwing", "image_url": "https://s3-media4.fl.yelpcdn.com/bphoto/2z7jvctXJEeKUBKB-XIPSg/o.jpg", "is_closed": false, "url": "https://www.yelp.com/biz/bury-the-hatchet-paramus-axe-throwing-paramus-2?adjust_creative=5FV6d79g5IFRDRnAWjah_g&utm_campaign=yelp_api_v3&utm_medium=api_v3_business_search&utm_source=5FV6d79g5IFRDRnAWjah_g", "review_count": 75, "categories": [{"alias": "axethrowing", "title": "Axe Throwing"}], "rating": 4.0, "coordinates": {"latitude": 40.94936, "longitude": -74.068}, "transactions": [], "location": {"address1": "49 E Midland Ave", "address2": null, "address3": "", "city": "Paramus", "zip_code": "07652", "country": "US", "state": "NJ", "display_address": ["49 E Midland Ave", "Paramus, NJ 07652"]}, "phone": "+12016883358", "display_phone": "(201) 688-3358", "distance": 34723.273827788835}, {"id": "35-KOEjrEy1wtSLqXwwv2A", "alias": "alpha-axe-throwing-long-beach", "name": "Alpha Axe Throwing", "image_url": "https://s3-media1.fl.yelpcdn.com/bphoto/83LywQI2svJXqAAfo1hE_g/o.jpg", "is_closed": false, "url": "https://www.yelp.com/biz/alpha-axe-throwing-long-beach?adjust_creative=5FV6d79g5IFRDRnAWjah_g&utm_campaign=yelp_api_v3&utm_medium=api_v3_business_search&utm_source=5FV6d79g5IFRDRnAWjah_g", "review_count": 1, "categories": [{"alias": "axethrowing", "title": "Axe Throwing"}], "rating": 5.0, "coordinates": {"latitude": 40.5884373, "longitude": -73.657908}, "transactions": [], "location": {"address1": "", "address2": null, "address3": "", "city": "Long Beach", "zip_code": "11561", "country": "US", "state": "NY", "display_address": ["Long Beach, NY 11561"]}, "phone": "+15162060999", "display_phone": "(516) 206-0999", "distance": 24794.675520636432}, {"id": "5izrkxTF_OWgwEdgzjNCAA", "alias": "bury-the-hatchet-woodbridge-axe-throwing-avenel", "name": "Bury The Hatchet Woodbridge - Axe Throwing", "image_url": "https://s3-media2.fl.yelpcdn.com/bphoto/ZhVxhmy3BDOGaEwflbF9RA/o.jpg", "is_closed": false, "url": "https://www.yelp.com/biz/bury-the-hatchet-woodbridge-axe-throwing-avenel?adjust_creative=5FV6d79g5IFRDRnAWjah_g&utm_campaign=yelp_api_v3&utm_medium=api_v3_business_search&utm_source=5FV6d79g5IFRDRnAWjah_g", "review_count": 6, "categories": [{"alias": "axethrowing", "title": "Axe Throwing"}], "rating": 4.5, "coordinates": {"latitude": 40.5919, "longitude": -74.28943}, "transactions": [], "location": {"address1": "1600 St Georges Ave", "address2": null, "address3": "", "city": "Avenel", "zip_code": "07001", "country": "US", "state": "NJ", "display_address": ["1600 St Georges Ave", "Avenel, NJ 07001"]}, "phone": "+17322986614", "display_phone": "(732) 298-6614", "distance": 30246.00489811494}, {"id": "BOYnPH11OTCMPzxiPJXHpw", "alias": "hatchet-house-hackensack-3", "name": "Hatchet House", "image_url": "https://s3-media3.fl.yelpcdn.com/bphoto/1BayJ29kv-F92Dqy7uboDA/o.jpg", "is_closed": false, "url": "https://www.yelp.com/biz/hatchet-house-hackensack-3?adjust_creative=5FV6d79g5IFRDRnAWjah_g&utm_campaign=yelp_api_v3&utm_medium=api_v3_business_search&utm_source=5FV6d79g5IFRDRnAWjah_g", "review_count": 1, "categories": [{"alias": "axethrowing", "title": "Axe Throwing"}, {"alias": "venues", "title": "Venues & Event Spaces"}, {"alias": "paintball", "title": "Paintball"}], "rating": 3.0, "coordinates": {"latitude": 40.8832357904038, "longitude": -74.0432552620768}, "transactions": [], "location": {"address1": "157A Main St", "address2": "", "address3": null, "city": "Hackensack", "zip_code": "07601", "country": "US", "state": "NJ", "display_address": ["157A Main St", "Hackensack, NJ 07601"]}, "phone": "+18332934653", "display_phone": "(833) 293-4653", "distance": 27125.32070094518}, {"id": "LN1itZNPsylqInDsLG4M_g", "alias": "new-york-sports-clubs-new-york-73", "name": "New York Sports Clubs", "image_url": "https://s3-media2.fl.yelpcdn.com/bphoto/eMLTokizDk84J50jB3gmzw/o.jpg", "is_closed": false, "url": "https://www.yelp.com/biz/new-york-sports-clubs-new-york-73?adjust_creative=5FV6d79g5IFRDRnAWjah_g&utm_campaign=yelp_api_v3&utm_medium=api_v3_business_search&utm_source=5FV6d79g5IFRDRnAWjah_g", "review_count": 108, "categories": [{"alias": "gyms", "title": "Gyms"}, {"alias": "healthtrainers", "title": "Trainers"}, {"alias": "sports_clubs", "title": "Sports Clubs"}], "rating": 2.0, "coordinates": {"latitude": 40.7455891, "longitude": -73.9980521}, "transactions": [], "location": {"address1": "270 8th Ave", "address2": "", "address3": "", "city": "New York", "zip_code": "10011", "country": "US", "state": "NY", "display_address": ["270 8th Ave", "New York, NY 10011"]}, "phone": "+12122433400", "display_phone": "(212) 243-3400", "distance": 11489.778200039469}, {"id": "0OJWRkAI-iot-dtKX6BjbQ", "alias": "queens-archery-flushing", "name": "Queens Archery", "image_url": "https://s3-media3.fl.yelpcdn.com/bphoto/lXOzZPUHPPdu8iGsaH38nA/o.jpg", "is_closed": false, "url": "https://www.yelp.com/biz/queens-archery-flushing?adjust_creative=5FV6d79g5IFRDRnAWjah_g&utm_campaign=yelp_api_v3&utm_medium=api_v3_business_search&utm_source=5FV6d79g5IFRDRnAWjah_g", "review_count": 362, "categories": [{"alias": "sports_clubs", "title": "Sports Clubs"}, {"alias": "archery", "title": "Archery"}], "rating": 4.5, "coordinates": {"latitude": 40.76137, "longitude": -73.79556}, "transactions": [], "location": {"address1": "170-20 39th Ave", "address2": "", "address3": "", "city": "Flushing", "zip_code": "11358", "country": "US", "state": "NY", "display_address": ["170-20 39th Ave", "Flushing, NY 11358"]}, "phone": "+17184611756", "display_phone": "(718) 461-1756", "distance": 17134.395523061943}], "total": 28, "region": {"center": {"longitude": -73.93936157226562, "latitude": 40.652330148320374}}}